city,lon,lat,max_temp,humidity,clouds,wind,country,date
pevek,170.3133,69.7008,-30.48,93,100,1.29,RU,1676218705
inirida,-67.9239,3.8653,27.86,84,72,0.26,CO,1676218807
ushuaia,-68.3,-54.8,9.04,69,93,2.36,AR,1676218472
huangchuan,115.0394,32.1272,5.59,92,100,6.71,CN,1676218809
bluff,168.3333,-46.6,14.01,88,54,2.39,NZ,1676218681
thompson,-97.8558,55.7435,-12.91,85,100,0.0,CA,1676218663
albany,117.8917,-35.0169,15.26,77,0,4.32,AU,1676218578
tuy hoa,109.3,13.0833,23.09,93,99,1.83,VN,1676218810
busselton,115.3333,-33.65,17.3,67,0,5.97,AU,1676218659
beloha,45.05,-25.1667,26.28,73,100,5.59,MG,1676218669
hermon,-68.9134,44.8101,5.74,52,75,2.57,US,1676218811
saldanha,17.9442,-33.0117,19.77,86,36,7.24,ZA,1676218671
castro,-73.7732,-42.4721,17.44,77,75,2.57,CL,1676218728
rikitea,-134.9692,-23.1203,25.18,72,85,0.63,PF,1676218660
punta arenas,-70.9167,-53.15,11.06,50,75,9.77,CL,1676218663
chokurdakh,147.9167,70.6333,-32.96,95,100,1.58,RU,1676218662
vaini,-175.2,-21.2,26.09,94,75,2.57,TO,1676218669
qaanaaq,-69.3632,77.484,-32.94,95,59,2.21,GL,1676218662
rock sound,-76.2,24.9,24.72,81,0,9.13,BS,1676218814
los llanos de aridane,-17.9182,28.6585,17.86,77,40,4.02,ES,1676218677
sa kaeo,102.3333,13.75,27.14,66,75,3.21,TH,1676218532
fairbanks,-147.7164,64.8378,-19.11,78,100,0.0,US,1676218690
mahebourg,57.7,-20.4081,26.16,69,40,3.6,MU,1676218723
bengkulu,102.2655,-3.8004,24.39,83,98,2.65,ID,1676218726
east london,27.9116,-33.0153,21.52,94,100,5.66,ZA,1676218690
atuona,-139.0333,-9.8,25.9,74,5,7.5,PF,1676218710
nanortalik,-45.2371,60.1432,-8.16,60,100,6.32,GL,1676218817
hilo,-155.09,19.7297,19.6,97,75,4.02,US,1676218715
kruisfontein,24.7314,-34.0033,25.49,80,100,5.21,ZA,1676218817
souillac,57.5167,-20.5167,26.21,69,40,3.6,MU,1676218699
khatanga,102.5,71.9667,-21.18,99,100,1.43,RU,1676218752
seligenstadt,8.9739,50.0432,10.1,87,59,1.38,DE,1676218818
siedlce,22.2901,52.1677,-0.44,81,31,3.29,PL,1676218818
puerto ayora,-90.3518,-0.7393,28.98,89,25,3.13,EC,1676218692
avarua,-159.775,-21.2078,25.03,94,40,1.54,CK,1676218690
klaksvik,-6.589,62.2266,8.51,82,99,12.32,FO,1676218700
bang lamung,100.9289,13.047,28.55,67,19,4.58,TH,1676218819
aquiraz,-38.3911,-3.9014,30.05,63,99,4.2,BR,1676218820
marsa matruh,27.2453,31.3525,13.46,52,90,4.69,EG,1676218820
amapa,-52.0,1.0,27.81,78,94,1.8,BR,1676218821
coahuayana,-103.6833,18.7333,29.14,35,0,1.3,MX,1676218706
hambantota,81.1185,6.1241,24.38,81,96,4.97,LK,1676218575
cayenne,-52.3333,4.9333,28.02,78,100,6.69,GF,1676218821
zheleznodorozhnyy,38.0042,55.7503,-4.8,88,28,5.26,RU,1676218822
barrow,-156.7887,71.2906,-27.99,76,20,6.69,US,1676218434
emba,58.1442,48.8264,-12.5,94,85,2.87,KZ,1676218823
portree,-6.1942,57.4129,8.07,88,100,7.48,GB,1676218823
mount gambier,140.7667,-37.8333,13.28,66,46,2.95,AU,1676218773
diego de almagro,-70.05,-26.3667,27.26,30,1,3.94,CL,1676218686
lebu,-73.65,-37.6167,18.4,68,91,2.6,CL,1676218463
hermanus,19.2345,-34.4187,24.89,73,56,4.13,ZA,1676218676
kapaa,-159.319,22.0752,22.18,88,20,7.72,US,1676218684
kendari,122.4989,-3.945,24.21,93,99,1.38,ID,1676218826
tabuk,36.5833,28.3833,13.01,28,0,1.54,SA,1676218826
barcelos,-62.9242,-0.9747,29.46,62,93,1.76,BR,1676218827
severo-kurilsk,156.125,50.6789,-8.92,61,71,1.39,RU,1676218687
kaitangata,169.8464,-46.2817,11.34,95,29,1.52,NZ,1676218700
itoman,127.6694,26.1247,22.01,94,75,6.17,JP,1676218800
bredasdorp,20.0403,-34.5322,25.05,60,0,6.77,ZA,1676218675
mandalgovi,106.2708,45.7625,-14.99,84,1,4.2,MN,1676218671
ambilobe,49.05,-13.2,24.49,89,77,0.22,MG,1676218662
provideniya,-173.3,64.3833,-29.96,94,71,2.88,RU,1676218717
cape town,18.4232,-33.9258,25.15,69,40,9.26,ZA,1676218696
batagay,134.6333,67.6333,-49.02,99,75,0.49,RU,1676218829
new norfolk,147.0587,-42.7826,10.95,61,22,0.45,AU,1676218663
santa vitoria do palmar,-53.3681,-33.5189,33.71,27,29,2.73,BR,1676218831
kavaratti,72.642,10.5669,26.97,69,6,2.53,IN,1676218487
upernavik,-56.1549,72.7868,-25.76,91,100,1.55,GL,1676218716
san jose,-89.9,16.9833,16.58,94,100,0.94,GT,1676218832
tambopata,-69.1833,-12.7333,28.94,89,75,2.57,PE,1676218832
beringovskiy,179.3167,63.05,-31.3,90,96,2.96,RU,1676218717
tiksi,128.8694,71.6872,-41.05,100,76,1.15,RU,1676218718
oktyabrskoye,44.7417,43.0645,-0.92,74,100,1.0,RU,1676218834
hobart,147.3294,-42.8794,11.14,74,4,0.0,AU,1676218665
bethel,-73.414,41.3712,7.02,47,0,1.54,US,1676218676
bontang,117.5,0.1333,25.04,83,96,1.06,ID,1676218835
davila,120.5763,18.4726,24.86,80,0,3.34,PH,1676218835
aljezur,-8.8033,37.3191,15.46,72,98,7.81,PT,1676218835
naron,-8.1528,43.5167,17.16,49,0,0.86,ES,1676218836
mandera,41.867,3.9366,32.06,14,2,4.55,KE,1676218837
priargunsk,119.1012,50.3691,-30.22,100,52,0.77,RU,1676218837
muncar,114.3333,-8.4333,24.23,92,98,2.73,ID,1676218837
okha,142.9478,53.5739,-27.57,100,76,2.73,RU,1676218838
victoria,55.45,-4.6167,25.59,89,75,2.57,SC,1676218713
srednekolymsk,153.6833,67.45,-35.43,99,100,0.51,RU,1676218839
yellowknife,-114.3525,62.456,-23.71,84,75,1.54,CA,1676218671
kyren,102.1408,51.6828,-15.58,80,11,0.96,RU,1676218839
alofi,-169.9187,-19.0595,23.94,100,100,1.54,NU,1676218768
aklavik,-135.0107,68.2191,-34.0,68,100,0.0,CA,1676218840
alice springs,133.8833,-23.7,31.23,40,0,1.34,AU,1676218826
ladario,-57.6017,-19.0047,29.16,74,75,2.57,BR,1676218840
saint-augustin,-58.6502,51.226,-12.39,73,87,3.51,CA,1676218685
esperance,121.9,-33.8667,16.34,73,2,5.45,AU,1676218841
isangel,169.2667,-19.55,22.09,86,100,1.38,VU,1676218738
chicla,-76.2686,-11.705,10.36,68,80,1.3,PE,1676218842
kyaikto,97.0167,17.3,22.44,67,0,2.02,MM,1676218842
lexington,-84.4777,37.9887,6.9,43,0,7.2,US,1676218842
cidreira,-50.2056,-30.1811,27.29,62,0,4.99,BR,1676218659
san jeronimo,-110.79,29.3707,17.53,23,50,3.11,MX,1676218843
dikson,80.5464,73.5069,-13.14,91,97,8.29,RU,1676218733
nantucket,-70.0995,41.2835,8.08,73,0,4.63,US,1676218843
tulun,100.5792,54.5611,-23.14,100,64,1.3,RU,1676218844
shieli,66.75,44.1667,-2.79,76,95,2.65,KZ,1676218844
kodiak,-152.4072,57.79,-3.27,43,0,7.72,US,1676218734
bambous virieux,57.7575,-20.3428,26.14,69,40,3.6,MU,1676218678
meulaboh,96.1285,4.1363,24.98,88,98,2.16,ID,1676218845
novaya malykla,49.95,54.2,-7.51,92,100,5.77,RU,1676218845
jalu,21.5482,29.0331,15.1,33,41,3.57,LY,1676218669
fortuna,-124.1573,40.5982,4.51,94,0,0.0,US,1676218691
luoyang,112.4536,34.6836,3.38,97,100,2.57,CN,1676218713
port alfred,26.891,-33.5906,23.43,90,35,2.68,ZA,1676218475
port hardy,-127.4199,50.6996,5.1,100,100,5.14,CA,1676218695
washougal,-122.3534,45.5826,2.62,94,100,1.34,US,1676218847
georgetown,-14.4167,-7.9333,25.82,75,99,6.68,SH,1676218687
san patricio,-104.7,19.2167,24.06,69,20,3.09,MX,1676218691
thanh hoa,105.7667,19.8,21.7,94,0,2.27,VN,1676218784
marovoay,46.6333,-16.1,23.26,82,73,2.02,MG,1676218670
wawa,-84.7832,47.9834,0.96,86,75,2.06,CA,1676218849
la ronge,-105.2842,55.1001,-1.86,80,75,4.63,CA,1676218721
north platte,-100.7654,41.1239,2.84,78,0,4.47,US,1676218849
port lincoln,135.8667,-34.7333,15.16,74,23,5.47,AU,1676218564
richards bay,32.0377,-28.783,27.4,81,67,6.05,ZA,1676218764
tasiilaq,-37.6368,65.6145,-8.91,75,94,4.95,GL,1676218675
braganca,-46.7656,-1.0536,29.1,72,52,2.14,BR,1676218851
poya,165.15,-21.35,22.35,76,93,1.86,NC,1676218851
sungaipenuh,101.3833,-2.0833,17.56,91,100,0.56,ID,1676218852
odweyne,45.064,9.4092,23.69,19,2,3.8,SO,1676218852
hithadhoo,73.0833,-0.6,27.41,67,3,5.46,MV,1676218673
pisco,-76.2167,-13.7,25.03,78,40,4.12,PE,1676218853
verkhnevilyuysk,120.3167,63.4453,-38.36,100,80,1.86,RU,1676218854
ugoofaaru,73.0,5.6667,27.01,68,3,3.62,MV,1676218854
belaya gora,146.4167,68.5333,-32.37,98,100,0.45,RU,1676218854
dunedin,170.5036,-45.8742,14.33,76,24,3.96,NZ,1676218803
hay river,-115.7999,60.8156,-23.02,77,75,3.09,CA,1676218855
iskateley,53.1512,67.6803,-7.77,94,100,6.23,RU,1676218856
linqiong,103.4609,30.4159,9.9,87,100,2.48,CN,1676218856
maldonado,-54.9167,-34.6667,38.66,15,6,4.46,UY,1676218856
hamilton,-64.778,32.2915,21.72,82,75,2.57,BM,1676218857
guadalupe y calvo,-106.9667,26.1,11.19,32,75,2.22,MX,1676218858
shingu,135.9833,33.7333,11.36,86,100,1.68,JP,1676218742
kadoma,29.9153,-18.3333,22.0,77,99,2.52,ZW,1676218858
faanui,-151.75,-16.4833,27.33,76,100,5.43,PF,1676218748
khuzhir,107.3397,53.1939,-14.56,88,41,2.61,RU,1676218860
camacha,-16.3333,33.0833,16.68,72,40,5.14,PT,1676218861
saint george,-64.6781,32.3817,21.57,83,75,2.57,BM,1676218746
san cristobal,-89.6174,-0.9045,28.06,83,20,1.54,EC,1676218752
moerai,-151.3333,-22.4333,26.47,75,100,2.08,PF,1676218862
kankaanpaa,22.4167,61.8,2.42,81,100,5.07,FI,1676218862
keffi,7.8736,8.8486,37.9,7,9,2.59,NG,1676218863
ponta do sol,-17.1,32.6667,20.0,72,93,2.88,PT,1676218864
deputatskiy,139.9,69.3,-35.84,100,100,0.22,RU,1676218694
terrace bay,-87.1,48.7834,-1.95,95,100,1.9,CA,1676218864
hasaki,140.8333,35.7333,9.56,86,100,5.59,JP,1676218457
tibiri,7.0485,13.5627,33.33,8,0,7.33,NE,1676218865
manggar,108.2667,-2.8833,25.38,85,100,2.07,ID,1676218866
rincon,-81.2354,32.296,12.98,81,75,9.26,US,1676218866
half moon bay,-122.4286,37.4636,10.25,88,0,2.57,US,1676218867
sao joao da barra,-41.0511,-21.6403,31.05,79,91,5.01,BR,1676218867
nikolskoye,30.7861,59.7035,-1.06,94,100,4.41,RU,1676218696
georgiyevka,74.7114,43.0369,-9.98,85,4,3.0,KZ,1676218868
jacareacanga,-57.7528,-6.2222,28.61,82,54,1.12,BR,1676218869
tuktoyaktuk,-133.0374,69.4541,-37.0,67,20,1.03,CA,1676218702
awjilah,21.2869,29.1081,15.26,34,45,3.97,LY,1676218870
los alamos,-106.307,35.8881,6.48,45,0,0.89,US,1676218871
hit,42.8251,33.6416,11.91,33,1,4.53,IQ,1676218871
ovre ardal,7.8,61.3167,3.79,99,100,3.38,NO,1676218871
pangnirtung,-65.7125,66.1451,-34.32,90,63,0.69,CA,1676218692
mambolo,-13.0444,8.9231,30.16,39,4,5.64,SL,1676218872
strezhevoy,77.5889,60.7333,-17.19,97,40,2.94,RU,1676218873
necochea,-58.7368,-38.5473,36.32,28,68,4.51,AR,1676218723
guerrero negro,-114.0611,27.9769,14.09,63,80,5.79,MX,1676218680
korla,86.1469,41.7597,0.03,66,78,0.71,CN,1676218874
vila velha,-40.2925,-20.3297,30.97,71,20,8.23,BR,1676218706
jamestown,-5.7168,-15.9387,21.14,70,97,4.89,SH,1676218698
dukat,155.55,62.55,-29.56,100,100,0.6,RU,1676218877
verkhnyaya sinyachikha,61.6673,57.976,-8.8,95,100,2.48,RU,1676218877
haines junction,-137.5108,60.7522,-12.03,92,98,1.03,CA,1676218878
rawson,-65.1023,-43.3002,24.99,33,97,4.17,AR,1676218671
broken hill,141.4333,-31.95,18.87,33,71,6.03,AU,1676218820
kahului,-156.47,20.8947,22.69,87,20,3.6,US,1676218715
serra,-40.3078,-20.1286,30.7,62,20,8.23,BR,1676218879
saint-philippe,55.7679,-21.3585,26.77,80,62,4.36,RE,1676218679
lenine,35.7771,45.2986,1.85,86,100,7.57,UA,1676218879
arraial do cabo,-42.0278,-22.9661,27.98,78,75,2.57,BR,1676218707
lorengau,147.2712,-2.0226,27.08,82,98,3.57,PG,1676218733
ouricuri,-40.0817,-7.8825,35.84,25,67,2.57,BR,1676218880
hazleton,-75.9746,40.9584,5.65,45,0,1.54,US,1676218880
santo antonio do sudoeste,-53.7253,-26.0736,31.92,40,9,1.87,BR,1676218881
that phanom,104.7104,16.9364,28.46,42,24,2.19,TH,1676218882
reconquista,-59.65,-29.15,39.46,18,0,5.47,AR,1676218883
valparaiso,-71.6273,-33.0393,23.13,57,0,6.69,CL,1676218883
lugovoy,45.5,58.35,-8.56,98,100,1.16,RU,1676218883
denpasar,115.2167,-8.65,24.84,100,75,5.66,ID,1676218594
chake chake,39.7666,-5.2459,26.51,73,23,8.0,TZ,1676218884
sur,59.5289,22.5667,21.98,63,0,1.65,OM,1676218884
mao,15.3103,14.1212,30.69,10,0,7.02,TD,1676218885
katobu,122.5276,-4.9408,24.7,92,98,2.57,ID,1676218885
springbok,17.8865,-29.6643,25.94,35,0,7.68,ZA,1676218886
sao filipe,-24.4956,14.8961,21.06,80,99,5.39,CV,1676218886
mar del plata,-57.5575,-38.0023,33.94,54,0,8.75,AR,1676218698
kastamonu,33.6667,41.5,-4.07,86,53,2.23,TR,1676218887
lompoc,-120.4579,34.6391,9.32,81,40,4.02,US,1676218436
rio gallegos,-69.2181,-51.6226,13.03,33,75,8.75,AR,1676218888
lincoln,-61.5302,-34.8665,40.98,15,0,8.35,AR,1676218888
auki,160.7034,-8.7676,25.47,87,100,2.23,SB,1676218888
naze,129.4833,28.3667,19.51,89,57,7.9,JP,1676218667
svetlogorsk,20.1548,54.9399,3.06,92,99,8.7,RU,1676218889
naruja,41.9542,41.9069,3.18,81,48,1.14,GE,1676218889
severnyy,36.5532,50.677,-3.98,68,75,8.0,RU,1676218889
orange walk,-88.8333,17.8333,20.16,64,97,1.67,BZ,1676218890
okato,173.8833,-39.2,15.38,89,100,5.42,NZ,1676218890
dehloran,47.2679,32.6941,14.47,64,100,1.63,IR,1676218891
nowshera,71.9977,34.0058,12.38,21,0,3.83,PK,1676218891
najran,44.1277,17.4924,28.36,13,2,2.92,SA,1676218891
petropavlovsk-kamchatskiy,158.6483,53.0452,-19.67,71,0,5.0,RU,1676218891
carnarvon,113.6333,-24.8667,25.49,67,0,10.29,AU,1676218596
paralimni,33.9833,35.0375,13.49,60,3,0.45,CY,1676218893
saskylakh,114.0833,71.9167,-39.48,97,47,3.82,RU,1676218666
sofiyivka,33.8746,48.0493,-2.73,75,10,8.3,UA,1676218893
elat,34.9482,29.5581,14.91,47,86,2.06,IL,1676218823
sabang,95.3214,5.8933,27.58,77,96,4.46,ID,1676218894
moissac,1.0945,44.1024,12.93,56,0,2.13,FR,1676218895
kawalu,108.2082,-7.3817,21.96,96,100,0.25,ID,1676218614
bandarbeyla,50.8122,9.4942,24.54,70,0,7.34,SO,1676218895
liverpool,-64.7155,44.0335,6.86,60,65,10.8,CA,1676218896
winston,-82.0148,28.0317,20.97,70,75,10.73,US,1676218896
orlik,99.825,52.5178,-25.36,85,1,0.99,RU,1676218896
mersing,103.8405,2.4312,24.95,94,20,1.03,MY,1676218896
belyy yar,91.3903,53.6039,-25.06,84,100,1.0,RU,1676218897
kaeo,173.7833,-35.1,18.51,95,100,10.86,NZ,1676218897
jatibarang,108.3153,-6.4747,24.17,89,100,1.27,ID,1676218897
enshi,109.4833,30.3,8.3,90,100,2.44,CN,1676218898
nakamura,132.9333,32.9833,12.65,98,100,2.86,JP,1676218794
asbe teferi,40.8667,9.0833,20.13,26,0,2.44,ET,1676218898
mindelo,-24.9804,16.8901,21.75,60,100,9.77,CV,1676218899
butaritari,172.7902,3.0707,26.3,83,98,5.88,KI,1676218659
homer,-151.5483,59.6425,-3.06,72,100,8.75,US,1676218899
yulara,130.9889,-25.2406,32.07,21,65,4.99,AU,1676218697
fort nelson,-122.7002,58.8053,-10.23,85,75,0.0,CA,1676218900
bhasawar,77.0333,27.0333,14.4,27,0,4.06,IN,1676218900
berlevag,29.0864,70.8578,3.0,86,20,12.86,NO,1676218900
nemuro,145.575,43.3236,-3.62,85,15,4.98,JP,1676218729
pangody,74.4859,65.85,-12.06,94,99,8.16,RU,1676218901
geraldton,114.6,-28.7667,22.23,78,1,5.14,AU,1676218700
norman wells,-126.8329,65.282,-24.98,77,100,1.03,CA,1676218714
bubaque,-15.8333,11.2833,25.2,62,5,6.92,GW,1676218678
qazvin,50.0049,36.2797,-2.21,100,100,1.03,IR,1676218903
rocha,-54.3333,-34.4833,39.49,16,7,3.94,UY,1676218896
cherskiy,161.3,68.75,-41.34,100,69,0.35,RU,1676218732
kloulklubed,134.2556,7.0419,25.28,79,100,6.78,PW,1676218681
skegness,0.3363,53.1436,8.92,76,93,2.62,GB,1676218904
skibbereen,-9.2667,51.55,10.06,78,68,4.81,IE,1676218905
kiruna,20.2251,67.8557,-1.49,80,100,10.29,SE,1676218905
chardara,67.9692,41.2547,-0.24,53,0,3.44,KZ,1676218905
esmeralda,-78.1169,21.8525,29.85,50,0,0.96,CU,1676218906
santa rita,-71.511,10.5364,28.41,59,6,1.83,VE,1676218906
lapeer,-83.3188,43.0514,7.26,52,0,2.57,US,1676218906
ponta delgada,-25.6667,37.7333,16.4,82,20,4.12,PT,1676218906
paamiut,-49.6678,61.994,-15.74,78,1,7.17,GL,1676218731
santo domingo,-79.15,-0.25,25.23,80,97,1.84,EC,1676218907
zaoyang,112.7542,32.1272,3.7,96,100,7.38,CN,1676218907
rovaniemi,25.7167,66.5,1.67,75,0,7.72,FI,1676218908
boa vista,-60.6733,2.8197,31.99,48,40,7.2,BR,1676218908
minervino murge,16.0784,41.0843,10.14,72,92,5.88,IT,1676218909
okmulgee,-95.9605,35.6234,10.57,46,0,4.12,US,1676218909
portmore,-76.8672,17.9702,31.14,53,20,3.09,JM,1676218909
kudahuvadhoo,72.8944,2.6708,26.95,67,1,5.89,MV,1676218909
coari,-63.1414,-4.085,27.64,85,35,1.88,BR,1676218910
lakshmipur,90.8333,22.95,21.67,87,6,3.76,BD,1676218911
venustiano carranza,-99.0992,19.43,18.94,50,0,0.89,MX,1676218911
tsogni,10.0988,-2.7942,26.84,85,76,3.41,GA,1676218912
patrocinio,-46.9925,-18.9439,22.84,78,100,0.8,BR,1676218912
havelock,-76.9013,34.8791,17.99,87,100,2.68,US,1676218912
matinha,-45.0336,-3.1006,30.01,67,78,2.9,BR,1676218912
porto santo,-16.3415,33.072,18.21,72,40,5.14,PT,1676218913
archidona,-77.8,-0.9167,21.66,72,97,0.77,EC,1676218913
constitucion,-104.6749,23.9912,13.96,36,14,1.56,MX,1676218730
torbay,-52.7314,47.6666,-5.4,67,58,7.15,CA,1676218914
nouadhibou,-17.0347,20.931,20.99,78,100,4.12,MR,1676218737
namatanai,152.4333,-3.6667,26.03,85,100,2.91,PG,1676218915
sisophon,102.9737,13.5859,28.03,63,65,3.55,KH,1676218915
port elizabeth,25.5701,-33.918,26.72,88,100,7.72,ZA,1676218516
flinders,150.8552,-34.5833,20.66,89,100,0.89,AU,1676218724
ayagoz,80.4392,47.9714,-18.22,100,99,3.24,KZ,1676218916
sorland,12.6934,67.667,5.92,72,97,20.02,NO,1676218731
namibe,12.1522,-15.1961,25.13,65,23,6.27,AO,1676218917
teahupoo,-149.2667,-17.8333,22.98,77,51,5.87,PF,1676218917
polunochnoye,60.4153,60.8697,-8.77,94,100,1.97,RU,1676218917
rosario,-44.235,-2.9344,32.23,76,86,2.43,BR,1676218918
salinas,-80.9667,-2.2167,25.98,94,75,3.6,EC,1676218918
akyab,92.9,20.15,23.1,77,0,5.74,MM,1676218826
sao sebastiao do paraiso,-46.9914,-20.9169,18.59,96,100,1.14,BR,1676218918
lagoa,-27.9833,39.05,13.6,70,75,8.37,PT,1676218919
kuvshinovo,34.1725,57.0295,-8.08,95,77,2.91,RU,1676218919
coquimbo,-71.3436,-29.9533,18.85,82,100,4.63,CL,1676218714
sept-iles,-66.3821,50.2001,-3.86,71,40,3.6,CA,1676218686
vilyuysk,121.6247,63.7553,-39.14,100,84,1.93,RU,1676218920
vung tau,107.0843,10.346,25.1,86,62,5.93,VN,1676218920
chuy,-53.4616,-33.6971,34.21,28,16,3.53,UY,1676218537
clyde river,-68.5914,70.4692,-35.87,68,75,2.06,CA,1676218667
ahipara,173.1667,-35.1667,19.5,92,100,8.39,NZ,1676218664
stadskanaal,6.95,52.9833,8.99,87,6,1.79,NL,1676218921
cabo san lucas,-109.9124,22.8909,23.06,41,40,3.13,MX,1676218922
kirillov,38.3813,59.863,-13.37,99,55,2.02,RU,1676218922
lavrentiya,-171.0,65.5833,-29.8,91,53,2.96,RU,1676218744
saltpond,-1.0606,5.2091,29.46,71,27,5.96,GH,1676218923
borgarnes,-21.9206,64.5383,5.45,86,100,4.16,IS,1676218923
kampot,104.1833,10.6167,23.03,82,30,2.76,KH,1676218924
omboue,9.2618,-1.5746,28.57,75,45,3.97,GA,1676218924
adre,22.2,13.4667,29.79,12,0,4.51,TD,1676218924
campo maior,-42.1686,-4.8278,36.05,32,91,1.3,BR,1676218925
port keats,129.55,-14.25,24.45,91,100,3.27,AU,1676218925
nakhon ratchasima,102.1667,15.0,31.98,89,91,3.07,TH,1676218925
gold coast,153.4333,-28.0,26.67,94,75,1.03,AU,1676218885
kemijarvi,27.4306,66.7131,2.18,73,100,7.74,FI,1676218926
luangwa,30.4167,-15.6167,26.0,86,97,0.98,ZM,1676218926
le port,55.2919,-20.9373,27.0,84,65,1.83,RE,1676218926
alta floresta,-56.0861,-9.8756,31.9,66,75,2.06,BR,1676218927
sao gabriel da cachoeira,-67.0892,-0.1303,29.89,74,40,4.63,BR,1676218927
kununurra,128.7333,-15.7667,24.99,94,75,2.06,AU,1676218927
sitka,-135.33,57.0531,3.94,87,100,4.12,US,1676218709
oranjemund,16.4333,-28.55,21.2,73,0,5.16,NA,1676218685
prainha,-53.48,-1.8,29.38,68,60,1.8,BR,1676218928
riyadh,46.7219,24.6877,23.08,22,100,2.89,SA,1676218523
kirakira,161.9205,-10.4544,26.72,82,100,3.22,SB,1676218929
pitimbu,-34.8086,-7.4706,31.33,66,100,4.84,BR,1676218929
the pas,-101.2541,53.8251,0.01,80,100,6.17,CA,1676218930
punta alta,-62.0736,-38.8759,32.52,34,40,2.57,AR,1676218930
hun,15.9477,29.1268,14.92,49,84,2.3,LY,1676218930
chapais,-74.8492,49.7834,-11.12,80,85,3.09,CA,1676218930
vao,167.4833,-22.6667,24.67,63,0,9.43,NC,1676218931
wana,69.5725,32.2989,7.1,26,3,2.07,PK,1676218931
miquelon,-56.3814,47.0975,-2.0,69,100,11.16,PM,1676218931
qasigiannguit,-51.1922,68.8193,-23.86,92,35,1.14,GL,1676218932
sambava,50.1667,-14.2667,25.56,86,29,3.08,MG,1676218548
salinopolis,-47.3561,-0.6136,28.4,74,35,3.31,BR,1676218688
tiznit,-9.5,29.5833,18.84,27,100,6.18,MA,1676218932
dir,71.8756,35.2058,-0.21,46,13,4.2,PK,1676218933
tukan,57.4552,53.8409,-15.77,97,99,2.01,RU,1676218933
puerto escondido,-97.0667,15.85,27.46,78,0,3.09,MX,1676218933
aloleng,119.7824,16.1307,25.3,77,0,2.91,PH,1676218910
leningradskiy,178.4167,69.3833,-25.78,96,100,5.92,RU,1676218934
idrija,14.0306,46.0028,10.42,71,3,1.34,SI,1676218935
coihaique,-72.0662,-45.5752,12.97,44,40,4.63,CL,1676218935
bayangol,103.4656,50.6977,-22.9,98,10,1.66,RU,1676218935
longyearbyen,15.6401,78.2186,-4.09,74,75,10.29,SJ,1676218693
vardo,31.1107,70.3705,-3.01,93,100,11.83,NO,1676218936
te anau,167.7167,-45.4167,11.5,94,91,0.37,NZ,1676218936
talas,35.5538,38.6908,-9.63,79,20,4.12,TR,1676218936
evensk,159.2333,61.95,-25.16,93,68,3.23,RU,1676218937
iralaya,-83.2333,15.0,26.07,78,8,5.75,HN,1676218937
yagodnoye,149.6667,62.55,-34.63,100,99,0.85,RU,1676218937
tecoanapa,-98.75,16.5167,27.93,55,0,1.0,MX,1676218938
camalu,-116.0667,30.85,11.49,59,37,1.86,MX,1676218938
lusambo,23.45,-4.9667,22.81,95,100,1.24,CD,1676218938
dillon,-79.3712,34.4166,9.94,94,100,1.74,US,1676218938
narsaq,-46.05,60.9167,-18.88,63,100,1.69,GL,1676218939
shitanjing,106.3439,39.2342,-6.98,49,91,2.22,CN,1676218939
savannah bight,-85.85,16.45,25.7,69,65,2.25,HN,1676218939
mokhsogollokh,128.9203,61.4681,-27.09,98,100,1.89,RU,1676218737
papetoai,-149.8729,-17.4961,25.77,76,84,6.14,PF,1676218940
ribeira grande,-28.7,38.5167,15.22,63,75,8.49,PT,1676218940
saint-pierre,-56.1695,46.7654,-2.02,69,100,10.29,PM,1676218940
gornyy,83.9059,55.1153,-14.84,91,100,1.45,RU,1676218941
sembe,14.5806,1.6481,37.5,15,59,1.54,CG,1676218941
makakilo city,-158.0858,21.3469,22.18,77,0,8.23,US,1676218941
quimper,-4.1,48.0,13.31,66,0,3.09,FR,1676218941
luba,8.5547,3.4568,31.94,73,48,2.98,GQ,1676218942
jizan,42.6667,17.3333,26.52,64,2,3.05,SA,1676218942
yumen,97.2,40.2833,-3.69,41,100,4.13,CN,1676218676
salalah,54.0924,17.0151,24.05,69,0,0.0,OM,1676218729
hofn,-15.2082,64.2539,5.01,75,75,1.54,IS,1676218943
doha,51.5333,25.2867,20.99,78,0,4.63,QA,1676218527
polis,32.4264,35.0367,10.9,71,8,1.35,CY,1676218943
umm lajj,37.2685,25.0213,19.77,54,100,4.54,SA,1676218744
portales,-103.3344,34.1862,11.08,35,99,3.96,US,1676218944
izamal,-89.0167,20.9333,23.39,45,1,2.77,MX,1676218944
xian,108.9286,34.2583,4.45,86,100,2.17,CN,1676218944
ceres,19.311,-33.3689,29.68,29,0,4.16,ZA,1676218945
katsuura,140.3,35.1333,14.01,80,100,8.21,JP,1676218487
anzhero-sudzhensk,86.0285,56.081,-17.89,98,92,1.36,RU,1676218945
tiarei,-149.3333,-17.5333,26.01,77,42,5.72,PF,1676218945
maningrida,134.2667,-12.0667,24.53,92,100,1.98,AU,1676218946
nome,-165.4064,64.5011,-18.96,78,100,2.57,US,1676218946
gaya,3.4492,11.8844,36.51,6,0,5.95,NE,1676218946
dmitriyevka,55.3333,54.75,-9.25,91,100,6.37,RU,1676218947
la palma,-78.1453,8.4028,29.9,62,59,4.32,PA,1676218948
wilmington,-77.9447,34.2257,13.33,90,100,2.06,US,1676218948
talnakh,88.3972,69.4865,-12.66,93,100,8.51,RU,1676218682
moron,110.3165,47.3825,-20.69,90,3,1.57,MN,1676218948
sobolevo,31.8996,54.4299,-5.68,91,77,4.49,RU,1676218747
iqaluit,-68.5145,63.7506,-28.42,92,89,3.31,CA,1676218563
shar,81.0453,49.5886,-17.54,89,42,3.58,KZ,1676218951
narok,35.8601,-1.0783,22.96,24,22,5.68,KE,1676218951
tuatapere,167.6833,-46.1333,11.83,94,96,1.28,NZ,1676218747
mogadishu,45.3438,2.0371,25.53,78,1,9.99,SO,1676218914
kadiri,78.1667,14.1167,23.95,39,39,2.65,IN,1676218952
pasni,63.471,25.2631,22.01,58,0,1.74,PK,1676218953
kidal,1.4078,18.4411,32.79,10,3,5.69,ML,1676218954
grindavik,-22.4338,63.8424,4.97,87,100,10.29,IS,1676218690
boo,18.2833,59.3333,2.77,92,0,3.09,SE,1676218954
erzin,95.1623,50.261,-26.15,94,73,1.77,RU,1676218955
la rosa,-87.0667,15.35,22.22,67,53,2.02,HN,1676218955
chalmette,-89.9634,29.9427,12.24,53,0,5.66,US,1676218955
vytegra,36.4481,61.0064,-7.51,89,95,3.41,RU,1676218955
lensk,114.9278,60.7253,-12.74,93,100,4.64,RU,1676218916
nisia floresta,-35.2086,-6.0911,32.45,54,100,5.93,BR,1676218956
roald,6.1333,62.5833,9.63,87,75,12.35,NO,1676218956
laguna,-48.7808,-28.4825,27.44,65,0,4.27,BR,1676218767
zykovo,93.1461,55.9519,-21.59,100,67,1.12,RU,1676218957
yar-sale,70.8333,66.8333,-10.96,92,72,8.84,RU,1676218957
oistins,-59.5333,13.0667,29.05,54,40,12.35,BB,1676218957
chatra,84.8667,24.2167,15.93,20,0,4.27,IN,1676218958
inuvik,-133.7218,68.3499,-32.52,75,40,2.57,CA,1676218959
udachnyy,112.4,66.4167,-33.46,100,87,1.01,RU,1676218959
high rock,-78.2833,26.6208,22.01,79,14,9.15,BS,1676218960
praia da vitoria,-27.0667,38.7333,16.14,67,75,7.59,PT,1676218752
san quintin,-115.95,30.4833,12.07,61,35,0.98,MX,1676218733
batagay-alyta,130.4114,67.8006,-42.47,96,37,2.03,RU,1676218709
sarkand,79.9186,45.41,-11.11,84,74,3.02,KZ,1676218962
baturaja,104.1667,-4.1333,23.73,87,100,0.89,ID,1676218962
mizdah,12.9801,31.4451,10.8,68,99,5.52,LY,1676218669
tagusao,117.8141,9.1924,25.01,83,56,2.49,PH,1676218963
narragansett,-71.4495,41.4501,8.94,56,100,6.69,US,1676218963
eyl,49.8164,7.9803,24.09,73,0,7.72,SO,1676218684
buraydah,43.975,26.326,18.25,22,82,7.79,SA,1676218766
cockburn town,-74.5167,24.0333,25.15,76,13,8.53,BS,1676218964
ternate,127.4,0.8,26.67,82,87,4.13,ID,1676218965
anjad,75.05,22.0333,23.66,21,1,2.63,IN,1676218965
bonavista,-53.1147,48.6499,-7.85,71,95,7.91,CA,1676218695
port hedland,118.5667,-20.3167,31.03,89,40,6.17,AU,1676218965
pandan niog,120.5631,6.2282,26.85,83,99,5.7,PH,1676218966
havre-saint-pierre,-63.5986,50.2334,-8.0,85,100,4.12,CA,1676218681
biala podlaska,23.1165,52.0324,-0.39,78,31,3.07,PL,1676218966
bilibino,166.4372,68.0546,-36.14,99,44,2.1,RU,1676218749
kamina,24.9906,-8.7386,21.65,80,93,2.22,CD,1676218967
westport,171.6037,-41.7526,14.04,79,100,2.35,NZ,1676218967
great yarmouth,1.7305,52.6083,8.61,82,99,2.49,GB,1676218967
tchollire,14.1698,8.4022,36.98,7,59,3.16,CM,1676218967
ola,151.2833,59.5833,-17.05,97,100,2.66,RU,1676218968
atherton,145.4833,-17.2667,19.98,98,99,1.33,AU,1676218968
kaoma,24.8,-14.7833,24.23,70,100,1.19,ZM,1676218968
dalmatovo,62.9362,56.26,-14.15,96,78,2.94,RU,1676218968
fukue,128.8419,32.6881,13.8,92,100,9.96,JP,1676218695
port blair,92.75,11.6667,25.35,66,100,3.01,IN,1676218500
velingara,-14.1167,13.15,39.36,10,74,2.48,SN,1676218683
marsh harbour,-77.0636,26.5412,25.12,77,0,10.42,BS,1676218970
prince rupert,-130.3201,54.3161,6.05,93,100,7.72,CA,1676218669
brandon,-99.9531,49.8469,-7.84,93,75,5.14,CA,1676218971
chitipa,33.2697,-9.7024,19.07,91,100,0.79,MW,1676218971
novomykolayivka,35.9102,47.9781,-3.04,80,88,7.14,UA,1676218972
hami,93.45,42.8,0.74,58,100,3.55,CN,1676218972
ancud,-73.8203,-41.8697,15.15,72,100,1.59,CL,1676218677
paluan,120.4623,13.416,25.21,79,3,5.58,PH,1676218972
barra do garcas,-52.2567,-15.89,33.32,55,40,2.06,BR,1676218973
muros,-9.0603,42.7762,16.75,45,72,1.44,ES,1676218973
marawi,31.8167,18.4833,24.37,14,0,5.39,SD,1676218973
bodmin,-4.7243,50.4715,10.47,76,20,8.23,GB,1676218974
zhangye,100.4517,38.9342,-3.31,80,100,4.08,CN,1676218974
puerto colombia,-74.9547,10.9878,30.05,74,4,8.75,CO,1676218974
notse,1.1667,6.95,38.57,19,69,2.76,TG,1676218974
comodoro rivadavia,-67.5,-45.8667,18.92,26,0,5.66,AR,1676218684
banjar,114.9675,-8.19,24.74,91,61,2.77,ID,1676218975
willowmore,23.4895,-33.2926,29.27,26,19,6.18,ZA,1676218975
tsaratanana,47.65,-16.7833,25.0,79,80,1.8,MG,1676218976
griffith,146.0333,-34.2833,13.87,67,13,3.83,AU,1676218976
buala,159.5921,-8.145,26.74,82,100,2.45,SB,1676218976
katherine,132.2667,-14.4667,24.18,94,100,0.0,AU,1676218977
samarai,150.6667,-10.6167,27.45,77,100,2.2,PG,1676218977
reinosa,-4.138,42.9996,8.03,49,0,3.37,ES,1676218977
tripoli,13.1875,32.8752,14.72,54,81,5.03,LY,1676218978
bulgan,103.5347,48.8125,-18.87,94,9,1.84,MN,1676218979
aitape,142.3475,-3.1374,25.57,90,100,3.41,PG,1676218980
wattegama,81.4808,6.7989,21.18,89,61,2.42,LK,1676218980
milton,169.9694,-46.1208,11.39,92,26,1.29,NZ,1676218981
caraballeda,-66.8522,10.6112,30.48,71,20,2.06,VE,1676218981
dwarka,68.9678,22.2394,24.35,43,0,5.78,IN,1676218823
karratha,116.8463,-20.7377,29.84,72,58,9.19,AU,1676218664
pacific grove,-121.9166,36.6177,8.57,86,0,3.6,US,1676218982
parana,-51.0,-24.0,24.19,83,69,2.01,BR,1676218982
xinyu,114.9334,27.8043,12.13,97,100,1.79,CN,1676218982
ostrovnoy,39.5131,68.0531,-6.05,85,100,9.88,RU,1676218660
vostok,135.8833,46.4856,-19.89,99,92,2.38,RU,1676218983
hennenman,27.0242,-27.9765,23.83,53,57,3.52,ZA,1676218684
coffs harbour,153.1333,-30.3,22.98,78,25,4.12,AU,1676218747
mahibadhoo,72.9667,3.7833,26.93,66,4,4.65,MV,1676218984
wajima,136.9,37.4,8.0,80,100,4.82,JP,1676218984
manono,27.4167,-7.3,25.31,85,76,1.38,CD,1676218984
ust-maya,134.5333,60.4167,-31.04,100,100,1.12,RU,1676218985
sokoni,39.55,-6.4333,28.92,78,97,8.02,TZ,1676218985
nakskov,11.1284,54.8373,8.39,91,90,6.19,DK,1676218985
grajau,-46.1386,-5.8194,32.46,51,60,1.76,BR,1676218986
virden,-100.9326,49.8508,-2.13,84,68,5.52,CA,1676218986
constantine,6.6147,36.365,10.67,62,20,3.6,DZ,1676218986
iranshahr,60.6848,27.2025,22.19,21,0,3.09,IR,1676218987
lima,-84.1052,40.7426,6.89,47,0,3.6,US,1676218987
malanje,16.341,-9.5402,24.21,64,81,0.53,AO,1676218987
antofagasta,-70.4,-23.65,26.6,60,0,3.85,CL,1676218714
bardiyah,25.0865,31.7561,12.76,57,81,6.84,LY,1676218988
porto novo,-25.0647,17.0197,22.0,70,100,5.53,CV,1676218988
