city,lon,lat,max_temp,humidity,clouds,wind,country,date
vaini,-175.2,-21.2,27.15,77,99,2.63,TO,1676482802
chara,118.2631,56.9064,-18.88,92,100,0.58,RU,1676482802
mackenzie,-123.1698,55.2999,-5.89,93,100,2.6,CA,1676482802
naze,129.4833,28.3667,13.51,70,75,7.06,JP,1676482803
husavik,-17.3389,66.0449,-0.81,67,100,5.5,IS,1676482803
pacific grove,-121.9166,36.6177,10.79,44,0,4.92,US,1676482803
mar del plata,-57.5575,-38.0023,27.19,44,0,10.29,AR,1676482804
sao filipe,-24.4956,14.8961,21.68,71,0,6.46,CV,1676482804
puerto ayora,-90.3518,-0.7393,30.98,84,15,2.24,EC,1676482804
maltahohe,16.9833,-24.8333,28.29,9,46,10.2,NA,1676482805
provideniya,-173.3,64.3833,-30.16,96,40,2.55,RU,1676482805
taree,152.4667,-31.9,13.37,99,24,1.39,AU,1676482781
bluff,168.3333,-46.6,12.66,88,68,1.56,NZ,1676482806
camaragibe,-34.9811,-8.0217,28.82,54,40,4.12,BR,1676482806
ahlat,42.4814,38.7518,-11.33,93,99,3.39,TR,1676482807
ribeira grande,-28.7,38.5167,16.22,63,75,6.26,PT,1676482807
krasnoselkup,82.4667,65.7,-15.54,96,98,4.04,RU,1676482807
willmar,-95.0433,45.1219,-10.99,79,0,12.35,US,1676482808
tiznit,-9.5,29.5833,7.3,92,100,2.87,MA,1676482809
la palma,-78.1453,8.4028,31.46,55,55,3.5,PA,1676482810
svetlogorsk,20.1548,54.9399,3.06,89,100,4.31,RU,1676482810
atuona,-139.0333,-9.8,26.0,71,22,7.76,PF,1676482810
upernavik,-56.1549,72.7868,-30.62,76,75,3.34,GL,1676482811
qaanaaq,-69.3632,77.484,-30.93,69,51,3.51,GL,1676482811
brynmawr,-3.1833,51.8,6.71,95,86,2.29,GB,1676482812
kapaa,-159.319,22.0752,20.18,87,100,3.09,US,1676482813
kaeo,173.7833,-35.1,15.74,95,100,2.24,NZ,1676482813
nikolskoye,30.7861,59.7035,1.56,97,100,2.18,RU,1676482813
waingapu,120.2641,-9.6567,25.34,85,100,2.88,ID,1676482813
dosso,3.1937,13.049,26.4,12,2,4.94,NE,1676482814
kavieng,150.7967,-2.5744,27.51,76,97,3.43,PG,1676482814
neiafu,-173.9833,-18.65,26.77,78,99,2.67,TO,1676482815
cherskiy,161.3,68.75,-38.11,98,99,1.59,RU,1676482815
rikitea,-134.9692,-23.1203,25.84,70,100,2.33,PF,1676482815
albany,117.8917,-35.0169,13.56,84,22,2.86,AU,1676482523
hasaki,140.8333,35.7333,-1.78,55,37,8.25,JP,1676482816
pailon,-62.75,-17.65,27.5,55,100,4.95,BO,1676482816
yumen,97.2,40.2833,-1.84,46,100,3.92,CN,1676482816
vila velha,-40.2925,-20.3297,31.97,67,0,7.2,BR,1676482799
iralaya,-83.2333,15.0,27.41,63,18,6.23,HN,1676482817
kokopo,152.2633,-4.352,25.94,83,99,1.02,PG,1676482817
dikson,80.5464,73.5069,-27.43,100,97,3.37,RU,1676482818
oranjemund,16.4333,-28.55,18.31,90,18,7.25,NA,1676482818
mahebourg,57.7,-20.4081,26.16,73,20,1.54,MU,1676482818
ust-maya,134.5333,60.4167,-43.46,100,84,0.24,RU,1676482819
bafq,55.4107,31.6128,19.17,25,98,4.91,IR,1676482819
butaritari,172.7902,3.0707,26.95,80,52,4.92,KI,1676482820
madarounfa,7.156,13.3087,26.13,14,0,4.88,NE,1676482820
thinadhoo,72.9333,0.5333,27.21,80,23,5.97,MV,1676482774
maykor,55.88,59.0059,-15.28,97,50,2.19,RU,1676482822
pine bluff,-92.0032,34.2284,20.74,82,20,4.63,US,1676482822
khatanga,102.5,71.9667,-15.47,96,100,4.65,RU,1676482822
abomey,1.9912,7.1829,32.11,15,40,1.57,BJ,1676482823
portobelo,-79.65,9.55,25.54,83,58,7.05,PA,1676482823
lake charles,-93.2044,30.2131,22.79,90,100,7.2,US,1676482824
barrow,-156.7887,71.2906,-27.99,76,100,6.17,US,1676482824
alofi,-169.9187,-19.0595,21.94,100,100,0.51,NU,1676482825
narsaq,-46.05,60.9167,-20.88,73,32,0.14,GL,1676482825
kodiak,-152.4072,57.79,-3.27,63,0,3.09,US,1676482825
guerrero negro,-114.0611,27.9769,14.87,53,81,6.75,MX,1676482826
saint george,-64.6781,32.3817,18.88,53,75,4.63,BM,1676482826
isangel,169.2667,-19.55,23.91,76,48,3.98,VU,1676482827
ponta do sol,-25.0919,17.1994,23.88,69,5,8.16,CV,1676482827
kaitangata,169.8464,-46.2817,13.59,82,76,2.01,NZ,1676482827
deer lake,-57.4316,49.1667,-1.74,77,25,3.11,CA,1676482827
quatre cocos,57.7625,-20.2078,26.06,76,9,3.87,MU,1676482829
arman,150.1667,59.7,-18.18,82,100,5.76,RU,1676482829
soyo,12.3689,-6.1349,27.04,78,59,4.15,AO,1676482829
cape town,18.4232,-33.9258,22.28,71,20,9.26,ZA,1676482578
hay river,-115.7999,60.8156,-26.11,96,38,1.11,CA,1676482830
tete,33.5867,-16.1564,24.05,100,75,1.54,MZ,1676482781
dicabisagan,122.4157,17.0818,22.62,87,100,7.16,PH,1676482830
krasnoyarskiy,59.8967,51.965,-9.17,96,100,3.32,RU,1676482831
ushuaia,-68.3,-54.8,2.81,87,100,6.69,AR,1676482649
busselton,115.3333,-33.65,13.84,84,27,1.58,AU,1676482827
ancud,-73.8203,-41.8697,15.03,68,73,1.97,CL,1676482832
belaya gora,146.4167,68.5333,-34.96,97,100,0.97,RU,1676482832
waling,83.7667,27.9833,11.74,49,0,2.13,NP,1676482833
east london,27.9116,-33.0153,22.52,94,75,2.57,ZA,1676482833
jamestown,-5.7168,-15.9387,21.51,81,64,7.71,SH,1676482833
avarua,-159.775,-21.2078,25.03,94,75,3.09,CK,1676482834
hobart,147.3294,-42.8794,15.15,89,74,0.89,AU,1676482048
aranos,19.1167,-24.1333,28.97,25,64,3.49,NA,1676482834
los llanos de aridane,-17.9182,28.6585,15.86,70,20,9.77,ES,1676482585
hilo,-155.09,19.7297,22.38,77,40,2.57,US,1676482835
itarema,-39.9167,-2.9248,27.04,76,100,5.55,BR,1676482836
preobrazheniye,133.9064,42.9019,-11.67,50,0,2.5,RU,1676482836
salalah,54.0924,17.0151,24.05,78,20,1.54,OM,1676482836
tura,100.25,64.2833,-22.04,98,99,2.12,RU,1676482837
zhangjiakou,114.8794,40.81,-9.95,92,31,1.07,CN,1676482837
dakar,-17.4441,14.6937,24.49,73,5,6.17,SN,1676482709
victoria,55.45,-4.6167,27.59,74,40,6.69,SC,1676482731
port alfred,26.891,-33.5906,20.66,98,100,1.34,ZA,1676482838
castro,-73.7732,-42.4721,19.1,63,75,5.66,CL,1676482734
cabedelo,-34.8339,-6.9811,32.37,70,87,5.08,BR,1676482839
hithadhoo,73.0833,-0.6,27.57,73,6,4.34,MV,1676482701
torbay,-52.7314,47.6666,-0.79,94,100,7.6,CA,1676482839
port elizabeth,25.5701,-33.918,23.39,73,0,3.09,ZA,1676482840
punta arenas,-70.9167,-53.15,9.06,57,40,11.32,CL,1676482835
pevek,170.3133,69.7008,-41.26,99,59,1.33,RU,1676482841
eureka,-124.1637,40.8021,6.43,80,7,0.45,US,1676482796
broken hill,141.4333,-31.95,25.51,33,0,3.07,AU,1676482594
savalou,1.9756,7.9281,33.32,12,37,1.61,BJ,1676482842
san patricio,-104.7,19.2167,27.81,40,17,2.79,MX,1676482842
itamaraca,-34.8256,-7.7478,29.03,66,100,3.94,BR,1676482842
iquique,-70.1431,-20.2208,27.02,72,13,2.87,CL,1676482843
ola,151.2833,59.5833,-16.4,82,100,4.97,RU,1676482843
mazsalaca,25.0547,57.8633,0.89,96,86,1.82,LV,1676482843
ahipara,173.1667,-35.1667,16.68,88,82,3.25,NZ,1676482843
gamba,10.0,-2.65,24.18,86,99,2.34,GA,1676482844
mishkino,63.9175,55.3389,-20.41,100,63,2.02,RU,1676482844
umm lajj,37.2685,25.0213,18.45,53,34,5.7,SA,1676482844
padang,100.3543,-0.9492,25.03,87,100,1.98,ID,1676482845
tingi,35.0333,-11.3,18.81,93,100,2.11,TZ,1676482846
leshukonskoye,45.7622,64.8989,-17.85,100,94,2.1,RU,1676482846
nador,-2.9287,35.174,17.04,72,20,4.63,MA,1676482846
ostrovnoy,39.5131,68.0531,-1.13,93,97,11.13,RU,1676482847
comodoro rivadavia,-67.5,-45.8667,13.92,23,20,5.14,AR,1676482847
sinnamary,-52.95,5.3833,26.51,87,90,4.97,GF,1676482847
el guamo,-74.9761,10.0316,36.05,34,8,2.98,CO,1676482848
vestmanna,-7.1664,62.1564,3.51,87,75,8.23,FO,1676482848
lavrentiya,-171.0,65.5833,-30.65,92,86,2.47,RU,1676482849
saint-philippe,55.7679,-21.3585,25.77,79,33,3.65,RE,1676482849
matara,80.5353,5.9485,22.61,81,31,4.36,LK,1676482555
palmerston,130.9833,-12.486,27.99,89,100,4.63,AU,1676482850
hobyo,48.5268,5.3505,25.47,69,12,8.04,SO,1676482850
clyde river,-68.5914,70.4692,-29.21,95,100,3.19,CA,1676482851
bredasdorp,20.0403,-34.5322,21.1,69,96,5.12,ZA,1676482851
kanniyakumari,77.5667,8.0833,24.4,72,2,5.46,IN,1676482851
kailua,-157.7394,21.4022,19.99,94,53,0.45,US,1676482852
nemuro,145.575,43.3236,-9.26,68,33,8.53,JP,1676482852
bengkulu,102.2655,-3.8004,23.56,93,95,1.88,ID,1676482852
yellowknife,-114.3525,62.456,-30.92,97,42,0.66,CA,1676482852
buraydah,43.975,26.326,14.25,42,94,7.11,SA,1676482732
coquimbo,-71.3436,-29.9533,18.85,77,75,5.14,CL,1676482854
codroipo,12.9792,45.96,12.09,64,0,2.57,IT,1676482854
amethi,81.8167,26.15,15.16,46,0,1.72,IN,1676482854
natal,-35.2094,-5.795,32.36,58,40,6.69,BR,1676482830
klaksvik,-6.589,62.2266,4.51,78,100,7.85,FO,1676482856
afrikanda,32.7828,67.4429,-5.06,98,100,1.85,RU,1676482857
brae,-1.353,60.3964,6.89,83,94,9.59,GB,1676482858
laguna,-48.7808,-28.4825,26.41,69,88,4.9,BR,1676482858
arraial do cabo,-42.0278,-22.9661,31.98,62,40,5.14,BR,1676482858
zhigansk,123.3711,66.7697,-37.73,100,67,2.2,RU,1676482859
sibolga,98.7792,1.7427,24.07,87,70,1.56,ID,1676482859
fortuna,-124.1573,40.5982,4.96,84,0,4.12,US,1676482859
catamarca,-65.7852,-28.4696,33.21,43,10,2.24,AR,1676482860
cayenne,-52.3333,4.9333,30.02,66,40,7.72,GF,1676482860
lagoa,-27.9833,39.05,14.82,69,53,3.08,PT,1676482861
owando,15.8999,-0.4819,25.0,69,98,1.43,CG,1676482861
geraldton,114.6,-28.7667,21.23,78,40,4.12,AU,1676482605
road town,-64.6167,18.4167,28.05,78,40,4.63,VG,1676482805
shingu,135.9833,33.7333,-0.34,75,3,3.11,JP,1676482812
leeton,146.4,-34.5667,22.61,36,61,3.01,AU,1676482863
tadine,167.8833,-21.55,22.5,71,100,3.24,NC,1676482863
san carlos de bariloche,-71.3082,-41.1456,17.86,39,40,10.29,AR,1676482864
tulun,100.5792,54.5611,-14.83,98,100,0.99,RU,1676482864
van,43.3831,38.4924,-6.36,93,75,5.66,TR,1676482864
faanui,-151.75,-16.4833,27.39,77,17,5.6,PF,1676482864
auki,160.7034,-8.7676,25.17,86,73,1.17,SB,1676482865
asyut,31.1837,27.181,15.1,40,62,3.67,EG,1676482866
saskylakh,114.0833,71.9167,-17.28,95,100,2.49,RU,1676482866
hualmay,-77.6139,-11.0964,25.64,74,96,3.74,PE,1676482866
cabo san lucas,-109.9124,22.8909,22.56,63,20,3.09,MX,1676482820
port-gentil,8.7815,-0.7193,27.98,78,20,2.57,GA,1676482868
caravelas,-39.2481,-17.7125,29.83,60,73,5.16,BR,1676482869
port lincoln,135.8667,-34.7333,23.3,51,84,5.32,AU,1676482870
kangaatsiaq,-53.4641,68.3065,-21.56,70,100,6.13,GL,1676482870
witu,40.4382,-2.3889,24.6,86,17,4.84,KE,1676482870
severodvinsk,39.8302,64.5635,-8.94,92,53,3.67,RU,1676482872
tautira,-149.15,-17.7333,26.91,76,16,3.45,PF,1676482872
hirara,125.2833,24.8,17.02,60,100,11.0,JP,1676482873
estelle,-90.1067,29.8458,26.67,73,75,8.05,US,1676482873
alta floresta,-56.0861,-9.8756,31.9,70,40,2.57,BR,1676482874
sao joao da barra,-41.0511,-21.6403,32.05,81,68,5.8,BR,1676482874
marfino,37.3822,55.7028,-3.05,74,100,6.0,RU,1676482875
chokurdakh,147.9167,70.6333,-45.06,100,80,1.09,RU,1676482875
male,73.5089,4.1748,27.97,69,20,6.17,MV,1676482875
chuy,-53.4616,-33.6971,24.74,49,14,5.26,UY,1676482876
rocha,-54.3333,-34.4833,27.06,32,8,6.6,UY,1676482876
camana,-72.7111,-16.6228,26.05,74,79,3.44,PE,1676482877
sorland,12.6934,67.667,5.92,86,100,12.12,NO,1676482878
pontianak,109.3333,-0.0333,24.99,94,40,1.54,ID,1676482878
cidreira,-50.2056,-30.1811,26.84,70,96,4.27,BR,1676482878
upala,-85.0145,10.8979,28.19,66,88,2.79,CR,1676482879
shimoda,138.95,34.6667,1.72,65,96,4.18,JP,1676482857
santa fe,-82.2613,23.1292,28.11,47,0,5.53,CU,1676482880
mandsaur,75.0667,24.0667,21.39,23,0,1.0,IN,1676482880
college,-147.8028,64.8569,-22.01,76,75,2.06,US,1676482880
dudinka,86.1778,69.4058,-16.32,95,100,6.13,RU,1676482881
houma,-90.7195,29.5958,25.0,84,100,4.47,US,1676482881
kariya,136.9833,34.9833,2.99,56,4,4.46,JP,1676482882
iqaluit,-68.5145,63.7506,-20.17,70,91,5.36,CA,1676482812
palmer,-72.3287,42.1584,14.72,46,20,10.29,US,1676482882
victoria falls,25.843,-17.9235,21.06,94,99,1.74,ZW,1676482882
guider,13.9486,9.9342,26.7,16,5,3.53,CM,1676482883
banjar,114.9675,-8.19,24.41,88,100,1.94,ID,1676482884
tuktoyaktuk,-133.0374,69.4541,-32.36,98,14,4.34,CA,1676482884
lompoc,-120.4579,34.6391,12.69,45,0,4.12,US,1676482885
wad rawah,33.1397,15.1603,22.32,15,82,6.36,SD,1676482885
manosque,5.7869,43.8288,8.64,72,84,1.62,FR,1676482885
jiamusi,130.35,46.8333,-20.98,93,42,3.16,CN,1676482750
bogorodskoye,37.8833,56.55,-9.74,97,100,2.35,RU,1676482886
tobane,27.9,-21.95,23.16,77,100,4.5,BW,1676482886
nanga eboko,12.3667,4.6833,26.6,22,56,1.26,CM,1676482888
bambous virieux,57.7575,-20.3428,26.14,73,20,1.54,MU,1676482888
chapais,-74.8492,49.7834,0.41,98,100,5.66,CA,1676482889
tiksi,128.8694,71.6872,-25.59,98,100,3.71,RU,1676482889
vanimo,141.3028,-2.6741,24.49,93,100,2.77,PG,1676482889
cerrito,-57.6667,-27.3167,36.89,34,83,1.26,PY,1676482890
key west,-81.7826,24.5557,26.0,61,0,7.2,US,1676482891
porto walter,-72.7439,-8.2686,29.39,69,100,1.6,BR,1676482891
alihe,123.7167,50.5667,-18.35,99,98,1.0,CN,1676482870
bandarbeyla,50.8122,9.4942,24.84,71,18,5.52,SO,1676482892
hermanus,19.2345,-34.4187,18.22,77,99,5.44,ZA,1676482893
kahului,-156.47,20.8947,21.02,93,40,2.57,US,1676482894
altay,88.1167,47.8667,-11.81,75,15,3.57,CN,1676482867
mandalgovi,106.2708,45.7625,-12.2,64,86,2.92,MN,1676482895
taoudenni,-3.9836,22.6783,26.92,15,100,4.32,ML,1676482896
alekseyevskaya,42.1845,50.2896,-10.11,97,98,2.84,RU,1676482898
zhangye,100.4517,38.9342,-2.99,50,43,2.54,CN,1676482898
la ronge,-105.2842,55.1001,-21.35,87,31,3.12,CA,1676482716
itoman,127.6694,26.1247,16.01,59,82,6.69,JP,1676482899
sergeyevka,67.4158,53.88,-20.18,100,31,2.02,KZ,1676482899
bethel,-73.414,41.3712,16.03,54,0,5.66,US,1676482900
margate,30.3705,-30.8636,25.43,90,87,0.81,ZA,1676482901
markova,104.2054,52.2132,-15.82,85,40,2.0,RU,1676482901
severo-kurilsk,156.125,50.6789,-2.25,63,99,10.31,RU,1676482902
port hardy,-127.4199,50.6996,3.57,81,100,4.02,CA,1676482903
huarmey,-78.1522,-10.0681,25.39,76,99,3.96,PE,1676482903
umarizal,-37.8144,-5.9906,36.57,25,60,2.13,BR,1676482904
neuchatel,6.8333,46.9167,8.21,77,0,0.51,CH,1676482904
new norfolk,147.0587,-42.7826,14.84,70,79,1.19,AU,1676482904
vestmannaeyjar,-20.2734,63.4427,1.55,93,20,3.6,IS,1676482905
karatau,70.4667,43.1667,-1.41,97,100,2.41,KZ,1676482905
dok kham tai,99.9934,19.1624,22.47,60,5,1.97,TH,1676482905
maceio,-35.7353,-9.6658,30.69,66,75,6.69,BR,1676482733
sitka,-135.33,57.0531,3.94,81,100,4.12,US,1676482906
west wendover,-114.0733,40.7391,-2.44,46,0,6.69,US,1676482906
beloha,45.05,-25.1667,26.46,61,55,1.92,MG,1676482907
morondava,44.2833,-20.2833,26.54,77,7,1.73,MG,1676482907
acapulco,-99.8901,16.8634,28.9,65,40,2.06,MX,1676482764
prince albert,-105.7677,53.2001,-16.61,83,85,2.76,CA,1676482908
thompson,-97.8558,55.7435,-22.05,88,99,3.39,CA,1676482908
the valley,-63.0578,18.217,28.92,69,40,5.66,AI,1676482908
berlevag,29.0864,70.8578,3.0,75,0,5.66,NO,1676482909
san martin,-68.4681,-33.081,32.3,18,1,4.91,AR,1676482770
turki,43.2731,51.987,-11.52,96,90,3.73,RU,1676482910
port macquarie,152.9167,-31.4333,14.38,87,9,1.88,AU,1676482908
gazanjyk,55.5154,39.2446,6.78,77,30,4.1,TM,1676482911
constitucion,-104.6749,23.9912,18.41,4,0,5.81,MX,1676482911
carutapera,-46.02,-1.195,26.85,82,95,2.53,BR,1676482911
gua musang,101.9644,4.8823,20.23,96,21,0.77,MY,1676482912
katsuura,140.3,35.1333,2.78,58,41,6.19,JP,1676482913
erdaojiang,126.0319,41.7764,-13.66,94,82,1.02,CN,1676482913
banda aceh,95.3222,5.5577,25.61,82,84,3.97,ID,1676482659
tasiilaq,-37.6368,65.6145,-3.91,82,96,2.61,GL,1676482914
aklavik,-135.0107,68.2191,-32.97,100,23,3.14,CA,1676482914
dunedin,170.5036,-45.8742,14.33,82,56,1.34,NZ,1676482724
aljezur,-8.8033,37.3191,14.56,75,100,2.14,PT,1676482915
dingle,-10.2689,52.1408,8.77,93,100,10.0,IE,1676482915
aleksandrov gay,48.5704,50.147,-10.4,97,93,2.18,RU,1676482915
necochea,-58.7368,-38.5473,26.92,34,37,7.86,AR,1676482916
inuvik,-133.7218,68.3499,-34.45,99,10,1.75,CA,1676482916
kruisfontein,24.7314,-34.0033,22.16,88,100,2.41,ZA,1676482916
diffa,12.6113,13.3154,21.14,19,0,4.63,NE,1676482916
karratha,116.8463,-20.7377,30.48,58,4,5.82,AU,1676482917
honningsvag,25.9704,70.9821,2.86,87,40,9.26,NO,1676482917
kardla,22.7492,58.9978,0.03,87,100,4.13,EE,1676482917
te anau,167.7167,-45.4167,11.42,82,78,1.46,NZ,1676482919
mufumbwe,24.8,-13.6833,18.84,81,97,2.72,ZM,1676482920
halmstad,12.8568,56.6745,4.06,100,75,3.6,SE,1676482707
sangar,127.4739,63.9242,-41.74,100,50,0.94,RU,1676482921
sovetskiy,63.5842,61.3614,-18.96,100,84,1.24,RU,1676482921
sri aman,111.4621,1.2376,23.03,94,100,0.0,MY,1676482922
ridgecrest,-117.6709,35.6225,7.79,24,0,8.23,US,1676482922
gorom-gorom,-0.2361,14.4439,28.4,13,97,5.84,BF,1676482922
manggar,108.2667,-2.8833,25.62,85,100,4.42,ID,1676482923
pecos,-103.4932,31.4229,16.84,14,0,8.23,US,1676482923
labuhan,112.2051,-6.8844,24.88,88,100,4.97,ID,1676482923
carroll,-77.0164,39.5501,17.61,54,0,5.14,US,1676482924
kloulklubed,134.2556,7.0419,27.44,82,100,9.4,PW,1676482924
richmond,30.2724,-29.872,19.73,97,75,0.37,ZA,1676482925
inhambane,35.3833,-23.865,26.26,84,3,4.48,MZ,1676482925
bairiki,172.9752,1.3292,27.0,83,20,4.12,KI,1676482925
odienne,-7.5692,9.51,34.58,10,12,2.83,CI,1676482926
clearwater,-82.8001,27.9659,27.28,59,75,6.17,US,1676482927
lunenburg,-64.3155,44.3835,3.92,72,66,4.87,CA,1676482927
alcaniz,-0.1333,41.05,8.8,65,99,0.99,ES,1676482927
garoua,13.4,9.3,27.55,16,4,2.9,CM,1676482928
chegdomyn,133.0167,51.1167,-28.94,99,91,0.66,RU,1676482928
rio gallegos,-69.2181,-51.6226,11.03,30,100,14.92,AR,1676482928
sioux lookout,-91.917,50.1001,-15.17,80,100,4.8,CA,1676482929
egvekinot,-179.1667,66.3167,-31.49,91,30,3.06,RU,1676482929
ordu,37.6845,40.9086,-5.72,96,100,2.6,TR,1676482930
moindou,165.677,-21.6924,22.96,81,84,1.46,NC,1676482930
vilhena,-60.1458,-12.7406,29.12,70,75,4.63,BR,1676482931
artyom,50.333,40.4723,4.08,68,5,8.48,AZ,1676482931
richards bay,32.0377,-28.783,25.1,92,100,3.0,ZA,1676482932
buala,159.5921,-8.145,26.82,78,83,0.36,SB,1676482932
wilmington,-77.9447,34.2257,24.95,55,40,7.72,US,1676482821
muli,73.5667,2.9167,27.14,68,46,6.86,MV,1676482933
lensk,114.9278,60.7253,-20.49,100,93,1.96,RU,1676482880
rio grande,-52.0986,-32.035,25.06,68,98,5.7,BR,1676482934
leningradskiy,178.4167,69.3833,-36.54,97,85,3.08,RU,1676482935
alice springs,133.8833,-23.7,20.75,46,3,0.0,AU,1676482935
solnechnyy,136.6319,50.7214,-25.01,95,24,1.45,RU,1676482935
carnarvon,113.6333,-24.8667,23.25,69,0,8.59,AU,1676482891
vila franca do campo,-25.4333,37.7167,16.23,67,64,1.73,PT,1676482936
hamilton,-64.778,32.2915,19.02,63,75,4.63,BM,1676482802
muros,-9.0603,42.7762,12.87,76,72,2.96,ES,1676482936
norman wells,-126.8329,65.282,-27.26,96,55,2.21,CA,1676482937
saint-pierre,-56.1695,46.7654,-1.02,100,0,5.14,PM,1676482937
tessalit,1.0114,20.1986,24.24,14,98,5.81,ML,1676482938
portland,141.6,-38.3333,18.44,49,98,2.75,AU,1676482938
york,-1.0827,53.9576,9.92,87,88,2.61,GB,1676482938
linhares,-40.0722,-19.3911,32.8,39,95,2.76,BR,1676482938
moranbah,148.0466,-22.0016,22.81,87,100,4.59,AU,1676482939
port-cartier,-66.8654,50.0334,-1.81,95,100,2.52,CA,1676482939
kyra,111.9753,49.5776,-11.0,72,100,5.54,RU,1676482939
nantucket,-70.0995,41.2835,9.03,80,40,6.17,US,1676482940
rundu,19.7667,-17.9333,25.11,52,93,0.99,NA,1676482808
xuddur,43.8894,4.1213,27.52,23,32,4.71,SO,1676482941
hami,93.45,42.8,-1.21,44,1,0.27,CN,1676482941
valdez,-78.9831,1.2492,27.1,75,60,3.39,EC,1676482941
yulara,130.9889,-25.2406,28.85,31,53,1.38,AU,1676482942
neuquen,-68.0591,-38.9516,25.94,29,0,5.14,AR,1676482828
roald,6.1333,62.5833,12.51,66,40,5.66,NO,1676482942
nichinan,131.3667,31.6,4.97,78,48,4.13,JP,1676482852
itupiranga,-49.3267,-5.1347,31.18,75,89,1.44,BR,1676482943
plastun,136.2939,44.7561,-15.71,73,2,3.38,RU,1676482943
kadambur,77.8667,8.9833,22.96,67,2,2.06,IN,1676482943
lamar,-95.5836,33.6668,22.42,59,0,2.57,US,1676482944
seydi,62.9137,39.4816,5.19,95,100,4.02,TM,1676482944
victor harbor,138.6167,-35.5667,27.04,35,97,3.17,AU,1676482945
yinchuan,106.2731,38.4681,-4.09,79,10,1.02,CN,1676482946
vao,167.4833,-22.6667,23.6,60,89,2.82,NC,1676482946
nanortalik,-45.2371,60.1432,-8.77,71,19,4.91,GL,1676482946
qasigiannguit,-51.1922,68.8193,-16.86,75,100,1.8,GL,1676482947
yingcheng,113.55,30.95,5.12,56,66,2.21,CN,1676482948
kenora,-94.4337,49.8167,-14.57,77,83,4.92,CA,1676482949
selfoss,-20.9971,63.9331,-0.53,78,84,2.05,IS,1676482949
azangaro,-70.2167,-14.9167,16.36,44,99,3.37,PE,1676482949
camabatela,15.375,-8.1881,17.88,97,95,1.1,AO,1676482950
ilulissat,-51.1,69.2167,-16.99,39,75,2.06,GL,1676482950
keti bandar,67.4497,24.1447,22.32,76,0,4.27,PK,1676482950
cockburn town,-74.5167,24.0333,24.11,63,42,7.73,BS,1676482950
jardim,-56.1381,-21.4803,29.58,67,97,0.2,BR,1676482951
georgetown,-14.4167,-7.9333,26.14,69,94,6.34,SH,1676482952
idritsa,28.8988,56.3316,-0.25,99,100,0.72,RU,1676482953
blenheim,-81.9998,42.3334,12.57,64,51,13.13,CA,1676482953
bambanglipuro,110.2833,-7.95,24.26,90,100,2.61,ID,1676482953
puerto ayacucho,-67.6236,5.6639,29.89,64,92,1.98,VE,1676482954
eyl,49.8164,7.9803,24.66,66,31,6.96,SO,1676482954
deputatskiy,139.9,69.3,-41.83,97,34,2.37,RU,1676482954
wairoa,177.3667,-39.0333,14.1,88,82,1.19,NZ,1676482955
buta,24.73,2.7858,27.54,27,38,0.96,CD,1676482956
aden,45.0367,12.7794,24.81,74,3,6.6,YE,1676482956
mortka,66.0214,59.3322,-14.23,97,100,1.49,RU,1676482956
sobolevo,31.8996,54.4299,-8.83,97,30,2.06,RU,1676482957
atar,-13.0499,20.5169,33.61,11,6,1.48,MR,1676482957
yerbogachen,108.0108,61.2767,-28.42,100,94,1.36,RU,1676482958
maniitsoq,-52.9,65.4167,-12.85,64,100,6.27,GL,1676482958
saint-denis,55.4667,-20.8667,25.26,76,75,3.6,RE,1676482958
viedma,-62.9967,-40.8135,21.96,32,65,9.92,AR,1676482959
tashara,83.5094,55.5195,-23.38,100,61,1.53,RU,1676482959
elizabeth city,-76.2511,36.2946,23.01,64,40,8.75,US,1676482960
logumkloster,8.9551,55.0594,4.18,95,100,3.37,DK,1676482960
ashland,-82.2665,40.8167,18.26,51,54,11.2,US,1676482960
pisco,-76.2167,-13.7,25.03,78,20,4.63,PE,1676482889
kabo,18.629,7.6994,28.89,17,20,2.43,CF,1676482961
liuzhou,109.3892,24.3126,10.74,54,11,3.02,CN,1676482961
champerico,-91.9167,14.3,32.3,58,0,4.2,GT,1676482962
thomaston,-84.3266,32.8882,21.88,64,75,2.57,US,1676482962
port keats,129.55,-14.25,27.34,80,71,2.72,AU,1676482962
seymchan,152.4333,62.8833,-29.69,95,100,2.01,RU,1676482963
ruiz,-105.15,21.95,27.83,28,0,1.46,MX,1676482963
samarai,150.6667,-10.6167,27.86,79,98,4.27,PG,1676482963
batagay-alyta,130.4114,67.8006,-37.09,87,34,1.8,RU,1676482964
mecca,39.8261,21.4267,18.92,51,39,6.39,SA,1676482718
petropavlovsk-kamchatskiy,158.6483,53.0452,-3.67,50,75,9.0,RU,1676482964
paamiut,-49.6678,61.994,-8.88,59,91,5.16,GL,1676482965
kayerkan,87.7602,69.3497,-16.93,84,100,6.68,RU,1676482965
vardo,31.1107,70.3705,-0.01,93,0,10.8,NO,1676482966
beatrice,-96.747,40.2681,-0.01,74,100,6.69,US,1676482966
bestobe,73.0975,52.4994,-23.51,100,91,0.85,KZ,1676482967
primo tapia,-116.9172,32.22,12.52,31,6,2.34,MX,1676482967
kieta,155.6333,-6.2167,26.06,79,100,0.94,PG,1676482967
pangnirtung,-65.7125,66.1451,-20.71,99,100,1.77,CA,1676482968
kamaishi,141.8833,39.2667,-4.99,78,19,2.74,JP,1676482969
komsomolskiy,46.6985,43.9783,-0.43,96,100,3.26,RU,1676482969
nampula,39.2666,-15.1165,21.97,94,75,3.6,MZ,1676482969
bermeo,-2.7215,43.4209,16.44,73,0,1.6,ES,1676482745
aldan,125.3894,58.6031,-22.39,99,100,1.79,RU,1676482889
borovoy,86.0833,55.4333,-16.4,85,47,3.0,RU,1676482970
liberal,-100.921,37.0431,0.08,80,100,9.26,US,1676482971
wenzhou,120.6668,27.9994,7.14,63,0,0.94,CN,1676482930
akyab,92.9,20.15,19.44,58,0,3.32,MM,1676482971
kutum,24.6667,14.2,16.23,22,0,7.3,SD,1676482972
marrakesh,-8.0083,31.6315,9.04,87,75,2.57,MA,1676482972
sistranda,8.834,63.7256,3.98,69,97,6.83,NO,1676482972
mareeba,145.4333,-17.0,21.36,92,100,1.94,AU,1676482973
lebu,-73.65,-37.6167,17.75,68,7,9.34,CL,1676482973
baykit,96.37,61.67,-23.81,100,95,0.83,RU,1676482973
atherton,145.4833,-17.2667,18.85,99,100,2.68,AU,1676482974
alamosa,-105.87,37.4695,-9.01,79,100,10.29,US,1676482974
collie,116.15,-33.3667,10.14,94,17,1.16,AU,1676482974
lamtah,10.8833,35.6667,13.87,67,20,4.63,TN,1676482975
tomatlan,-105.25,19.9333,29.96,25,4,2.5,MX,1676482975
makakilo city,-158.0858,21.3469,19.18,83,20,3.6,US,1676482975
launceston,147.1667,-41.45,12.86,86,68,1.54,AU,1676482767
buritama,-50.1472,-21.0661,27.06,60,87,4.76,BR,1676482976
antofagasta,-70.4,-23.65,23.6,65,5,4.16,CL,1676482726
porto novo,-25.0647,17.0197,24.0,66,1,7.98,CV,1676482977
souillac,57.5167,-20.5167,26.21,73,20,1.54,MU,1676482977
merrill,-89.6835,45.1805,2.87,91,100,7.2,US,1676482977
leh,77.5833,34.1667,-13.3,68,3,1.65,IN,1676482978
ajaccio,8.9167,42.0,8.99,71,0,1.54,FR,1676482742
qarqin,66.0436,37.4185,12.86,67,100,6.77,AF,1676482979
koslan,48.8989,63.4564,-19.35,100,95,0.43,RU,1676482979
stavropol,41.9733,45.0428,-3.84,86,100,5.0,RU,1676482721
mpulungu,31.1141,-8.7623,23.35,76,58,0.8,ZM,1676482980
talnakh,88.3972,69.4865,-16.55,96,100,5.11,RU,1676482980
atbasar,68.3333,51.8,-20.69,99,19,2.23,KZ,1676482981
olafsvik,-23.7142,64.8945,2.11,86,97,9.01,IS,1676482982
fort nelson,-122.7002,58.8053,-16.7,80,100,0.89,CA,1676482982
adrar,-1.0,25.75,21.88,18,100,5.27,DZ,1676482982
innisfail,146.0333,-17.5333,24.1,92,100,1.35,AU,1676482983
peleduy,112.7406,59.6289,-13.67,97,100,2.27,RU,1676482983
mount gambier,140.7667,-37.8333,19.66,35,99,2.75,AU,1676482963
marhaura,84.8667,25.9667,16.96,44,0,1.66,IN,1676482985
mago,140.1822,53.2514,-31.85,100,75,0.41,RU,1676482985
kologriv,44.3178,58.8275,-12.25,98,99,1.94,RU,1676482986
bahia honda,-83.1592,22.9036,28.18,49,1,3.55,CU,1676482987
kerema,145.7785,-7.9631,26.01,78,100,4.0,PG,1676482987
yining,114.5636,29.0361,3.49,80,5,0.23,CN,1676482987
halifax,-63.5724,44.6453,3.52,72,45,1.79,CA,1676482840
hofn,-15.2082,64.2539,2.01,75,100,2.06,IS,1676482988
villa literno,14.0805,41.0099,12.41,84,0,2.57,IT,1676482891
liwale,37.9333,-9.7667,21.95,90,70,1.23,TZ,1676482989
ocosingo,-92.25,17.0667,29.25,31,0,1.59,MX,1676482989
maragogi,-35.2225,-9.0122,29.0,65,99,4.52,BR,1676482989
constantine,6.6147,36.365,11.67,43,0,1.03,DZ,1676482807
acari,-74.6158,-15.4311,27.87,70,100,4.81,PE,1676482990
sola,167.55,-13.8833,27.39,79,100,7.23,VU,1676482990
okhotsk,143.3,59.3833,-25.07,75,20,7.86,RU,1676482991
canon city,-105.2424,38.441,-4.61,87,100,6.69,US,1676482991
hanzhong,107.0303,33.0728,7.1,71,100,0.33,CN,1676482958
havre,-109.6841,48.55,-5.85,63,75,9.26,US,1676482992
sokoni,39.55,-6.4333,27.27,75,99,5.57,TZ,1676482992
namibe,12.1522,-15.1961,23.22,75,98,4.26,AO,1676482949
xining,101.7667,36.6167,-8.99,87,55,0.85,CN,1676482993
bayanday,105.5139,53.0661,-16.56,98,99,0.7,RU,1676482993
longyearbyen,15.6401,78.2186,-4.09,86,75,2.57,SJ,1676482993
chachapoyas,-77.869,-6.2317,17.91,80,95,1.24,PE,1676482995
nagato,131.2,34.3833,3.29,77,96,5.31,JP,1676482961
luangwa,30.4167,-15.6167,24.64,91,81,1.04,ZM,1676482995
calabozo,-67.4293,8.9242,32.84,41,97,4.0,VE,1676482996
tuatapere,167.6833,-46.1333,11.44,93,58,1.46,NZ,1676482996
perene,-75.2261,-10.9492,23.85,91,100,0.44,PE,1676482997
roma,148.7833,-26.5833,21.51,76,0,7.16,AU,1676482997
kismayo,42.5454,-0.3582,25.02,85,24,7.38,SO,1676482998
son la,103.9,21.3167,11.72,87,26,1.49,VN,1676482844
ixtapa,-105.2,20.7,23.57,57,0,1.03,MX,1676482999
aksarka,67.7975,66.5606,-20.35,99,91,2.26,RU,1676482999
ahuimanu,-157.8378,21.4447,19.84,94,20,3.6,US,1676483000
half moon bay,-122.4286,37.4636,11.16,43,0,5.66,US,1676483000
fare,-151.0167,-16.7,27.32,76,7,5.03,PF,1676483000
kavaratti,72.642,10.5669,26.55,73,3,2.9,IN,1676483001
saldanha,17.9442,-33.0117,22.03,84,0,12.13,ZA,1676483001
paso de los toros,-56.5167,-32.8167,33.41,22,0,1.77,UY,1676483001
powell,-83.0752,40.1578,20.17,48,20,10.8,US,1676483002
esperance,121.9,-33.8667,15.51,79,19,2.22,AU,1676483003
port hedland,118.5667,-20.3167,31.03,55,40,4.63,AU,1676483003
mahibadhoo,72.9667,3.7833,27.2,64,50,6.83,MV,1676483003
oistins,-59.5333,13.0667,26.05,69,75,7.2,BB,1676483004
chicama,-79.1469,-7.8447,23.3,60,99,3.49,PE,1676483005
oriximina,-55.8661,-1.7656,30.51,60,97,1.8,BR,1676483005
russkaya polyana,73.8806,53.7794,-23.41,100,88,2.63,RU,1676483006
belmonte,-38.8828,-15.8631,28.99,64,59,4.64,BR,1676483006
san cristobal,-89.6174,-0.9045,28.06,78,75,2.57,EC,1676483006
kamen-rybolov,132.0403,44.7481,-19.62,95,8,2.26,RU,1676483007
pafos,32.4167,34.7667,10.88,66,40,3.09,CY,1676483007
synya,58.0387,65.3718,-19.08,100,100,1.78,RU,1676483007
nenjiang,125.2167,49.1833,-17.19,95,100,2.14,CN,1676483008
manaus,-60.025,-3.1019,30.28,74,75,3.09,BR,1676483008
lishui,119.9103,28.4604,3.32,79,1,1.17,CN,1676483008
san ramon de la nueva oran,-64.326,-23.1322,35.24,25,91,2.39,AR,1676483009
santiago,-77.0045,1.1484,18.96,83,82,1.8,CO,1676483009
simbahan,120.5836,6.3032,26.84,81,98,8.32,PH,1676483010
srivardhan,73.0167,18.0333,24.44,43,2,1.81,IN,1676482938
pozo colorado,-58.7972,-23.4923,33.16,49,100,2.85,PY,1676483010
seka,103.9552,17.9285,17.01,73,3,2.71,TH,1676482961
cabra,120.0494,13.8883,25.91,74,90,13.24,PH,1676483011
nouadhibou,-17.0347,20.931,21.99,64,0,9.26,MR,1676482943
esso,158.7,55.9333,-12.5,87,100,7.91,RU,1676483012
lulea,22.1547,65.5842,-4.96,100,100,0.0,SE,1676482713
saint-augustin,-58.6502,51.226,-4.69,86,28,5.43,CA,1676483013
wewak,143.6268,-3.5534,24.64,92,100,2.83,PG,1676483013
ulladulla,150.4667,-35.35,17.46,88,100,1.46,AU,1676482869
